City_ID,City,Lat,Lng,Max Temp,Humidity,Cloudiness,Wind Speed,Country,Date
0,mudurnu,40.473,31.2076,8.78,73,0,2.44,TR,1730221452
1,st. john's,47.5649,-52.7093,4.05,90,75,4.47,CA,1730221223
2,enewetak,11.3474,162.3373,28.6,77,78,4.64,MH,1730221454
3,sandnessjoen,66.0217,12.6316,7.06,81,75,9.77,NO,1730221455
4,puerto armuelles,8.2833,-82.8667,25.05,90,96,0.45,PA,1730221456
5,west island,-12.1568,96.8225,25.99,89,40,6.69,CC,1730221457
6,adamstown,-25.066,-130.1015,20.58,74,6,2.59,PN,1730221458
7,stantsiya novyy afon,43.0806,40.8383,11.75,77,51,1.91,GE,1730221460
8,kone,-21.0595,164.8658,20.06,93,32,1.76,NC,1730221461
9,qui nhon,13.7667,109.2333,23.79,84,56,2.76,VN,1730221462
10,wailua homesteads,22.0669,-159.378,22.85,92,100,5.14,US,1730221463
11,taoudenni,22.6783,-3.9836,32.28,18,66,0.91,ML,1730221465
12,novyy urgal,51.0736,132.5642,-1.27,82,98,0.83,RU,1730221466
13,grytviken,-54.2811,-36.5092,1.56,76,96,3.07,GS,1730221467
14,port-aux-francais,-49.35,70.2167,1.17,67,97,9.03,TF,1730221468
15,pointe-noire,-4.7761,11.8635,25.71,82,100,3.77,CG,1730221469
16,keflavik,64.0049,-22.5624,5.24,81,75,11.32,IS,1730221470
17,port mathurin,-19.6833,63.4167,23.71,77,2,3.36,MU,1730221471
18,bilibino,68.0546,166.4372,-23.94,99,27,1.97,RU,1730221472
19,hithadhoo,-0.6,73.0833,28.3,72,85,4.71,MV,1730221473
20,waitangi,-43.9535,-176.5597,11.57,96,100,1.79,NZ,1730221474
21,bethel,41.3712,-73.414,12.49,72,100,3.09,US,1730221475
22,papatowai,-46.5619,169.4708,6.0,84,55,3.65,NZ,1730221476
23,pisco,-13.7,-76.2167,21.03,73,4,3.6,PE,1730221447
24,jamestown,42.097,-79.2353,16.12,75,100,5.14,US,1730221193
25,kalemie,-5.9475,29.1947,24.63,78,17,0.44,CD,1730221481
26,puerto natales,-51.7236,-72.4875,7.25,87,100,2.57,CL,1730221267
27,wuyishan,28.0047,117.8114,14.51,83,100,0.17,CN,1730221483
28,cockburn town,21.4612,-71.1419,28.17,74,100,8.6,TC,1730221484
29,kourou,5.1552,-52.6478,31.46,51,85,4.43,GF,1730221485
30,atafu village,-8.5421,-172.5159,28.09,76,14,3.56,TK,1730221487
31,hamilton,39.1834,-84.5333,22.94,66,100,2.68,US,1730221241
32,maardu,59.4767,25.025,4.78,74,0,3.6,EE,1730221490
33,avarua,-21.2078,-159.775,22.03,78,20,4.63,CK,1730221334
34,port elizabeth,-33.918,25.5701,16.29,95,20,11.83,ZA,1730221492
35,portland,45.5234,-122.6762,8.09,96,75,2.06,US,1730220980
36,bredasdorp,-34.5322,20.0403,16.16,75,24,3.38,ZA,1730221494
37,ballina,-28.8667,153.5667,18.16,81,87,2.14,AU,1730221241
38,cullman,34.1748,-86.8436,20.36,77,75,2.57,US,1730221496
39,caala,-12.8525,15.5606,24.74,55,89,1.62,AO,1730221455
40,puerto ayora,-0.7393,-90.3518,21.67,75,62,5.39,EC,1730221498
41,saipan,15.1355,145.701,28.39,89,75,5.14,MP,1730221499
42,lompoc,34.6391,-120.4579,13.84,69,0,7.2,US,1730221500
43,geraldton,-28.7667,114.6,19.23,88,0,6.17,AU,1730221501
44,fort saskatchewan,53.7168,-113.2187,0.58,80,27,1.54,CA,1730221502
45,rio grande,-32.035,-52.0986,22.25,67,77,4.98,BR,1730221503
46,yellowknife,62.456,-114.3525,-9.23,99,75,5.14,CA,1730221505
47,shumerlya,55.5005,46.4129,5.58,98,100,1.79,RU,1730221506
48,ushuaia,-54.8,-68.3,8.81,61,75,10.8,AR,1730221417
49,louis trichardt,-23.0439,29.9032,25.0,15,12,2.79,ZA,1730221508
50,titao,13.7667,-2.0667,33.44,15,98,4.41,BF,1730221509
51,leava,-14.3,-178.1667,26.77,78,82,5.11,WF,1730221510
52,coahuayana de hidalgo,18.7,-103.6583,31.84,56,0,1.21,MX,1730221511
53,fale old settlement,-9.3852,-171.2468,28.09,75,17,3.94,TK,1730221512
54,bozkurt,41.9577,34.0109,12.49,87,5,1.96,TR,1730221513
55,gustavsberg,59.3268,18.3898,9.18,93,100,6.6,SE,1730221514
56,aral,40.5156,81.2636,12.09,28,0,2.82,CN,1730221515
57,whitehorse,60.7161,-135.0538,-2.87,92,100,7.72,CA,1730221517
58,cururupu,-1.8283,-44.8683,29.81,58,100,2.89,BR,1730221375
59,kununurra,-15.7667,128.7333,27.99,65,40,0.0,AU,1730221520
60,albany,42.6001,-73.9662,11.06,79,92,1.79,US,1730221518
61,utrik,11.2278,169.8474,27.93,80,89,5.98,MH,1730221522
62,kidal,18.4411,1.4078,33.26,10,69,4.74,ML,1730221523
63,tura,25.5198,90.2201,21.96,86,0,1.28,IN,1730221524
64,port moresby,-9.4431,147.1797,24.68,94,40,1.03,PG,1730221525
65,port blair,11.6667,92.75,26.02,94,20,0.51,IN,1730221526
66,badger,64.8,-147.5333,-8.0,91,100,1.71,US,1730221527
67,port alfred,-33.5906,26.891,16.77,91,100,3.58,ZA,1730221521
68,qaqortoq,60.7167,-46.0333,-1.33,80,83,2.97,GL,1730221530
69,kaa-khem,51.6833,94.7333,2.5,83,100,0.79,RU,1730221531
70,dodge city,37.7528,-100.0171,22.79,51,0,11.83,US,1730221532
71,talnakh,69.4865,88.3972,-15.44,96,54,2.58,RU,1730221379
72,panabo,7.3081,125.6842,28.06,79,100,1.77,PH,1730221534
73,callao,-12.0667,-77.15,20.16,73,75,5.14,PE,1730221332
74,prado,-17.3411,-39.2208,27.81,63,38,5.95,BR,1730221488
75,paramonga,-10.6667,-77.8333,20.63,73,27,5.58,PE,1730221537
76,cooper's town,26.8667,-77.5167,25.12,75,100,9.52,BS,1730221538
77,nemuro,43.3236,145.575,9.94,71,39,1.57,JP,1730221539
78,georgetown,5.4112,100.3354,25.7,89,20,1.54,MY,1730221377
79,mogocha,53.7333,119.7667,-4.38,95,100,0.47,RU,1730221542
80,saijo,33.9167,133.1833,18.51,97,100,2.05,JP,1730221543
81,ribeira grande,38.5167,-28.7,21.22,73,40,5.14,PT,1730221544
82,longyearbyen,78.2186,15.6401,-2.09,86,75,1.03,SJ,1730221393
83,blackmans bay,-43.0167,147.3167,8.74,81,100,0.45,AU,1730221546
84,buala,-8.145,159.5921,26.52,82,13,0.84,SB,1730221547
85,shubarshi,48.5872,57.1869,3.08,64,94,2.81,KZ,1730221548
86,fortuna,40.5982,-124.1573,8.51,100,20,1.54,US,1730221549
87,krasnystaw,50.9846,23.1742,11.59,91,100,2.54,PL,1730221550
88,carnarvon,-24.8667,113.6333,21.78,79,0,8.74,AU,1730221551
89,thompson,55.7435,-97.8558,2.09,87,100,3.6,CA,1730221472
90,kingston,17.997,-76.7936,32.53,66,75,7.2,JM,1730221075
91,kailua-kona,19.6406,-155.9956,23.85,78,40,2.57,US,1730221555
92,val-d'or,48.1002,-77.7828,7.05,53,75,9.26,CA,1730221556
93,isafjordur,66.0755,-23.124,1.02,93,75,2.06,IS,1730221557
94,wanxian,30.8039,108.3897,19.11,64,2,1.59,CN,1730221558
95,tagta,41.6504,59.9164,11.97,50,0,2.06,TM,1730221559
96,harstad,68.799,16.5293,0.9,97,100,5.81,NO,1730221560
97,arraial do cabo,-22.9661,-42.0278,23.92,78,100,5.14,BR,1730221296
98,mankera,31.3866,71.4407,28.25,30,1,2.22,PK,1730221562
99,cotonou,6.3654,2.4183,28.99,79,40,4.12,BJ,1730221563
100,gainesville,29.6516,-82.3248,23.91,83,100,3.6,US,1730221428
101,kaedi,16.1465,-13.5047,37.56,15,65,2.74,MR,1730221565
102,quellon,-43.1167,-73.6167,14.25,71,91,5.41,CL,1730221567
103,constantia,44.1833,28.65,11.38,63,7,5.06,RO,1730221568
104,kapa'a,22.0752,-159.319,23.6,92,80,6.27,US,1730221374
105,tolanaro,-25.0319,46.9987,26.04,83,40,13.89,MG,1730221570
106,kiunga,-6.1219,141.2906,23.87,99,100,0.89,PG,1730221571
107,tiksi,71.6872,128.8694,-23.43,100,90,1.43,RU,1730221572
108,jabor,5.921,169.6434,28.22,73,56,2.81,MH,1730221573
109,hovd,48.0056,91.6419,1.62,40,82,3.67,MN,1730221574
110,monte azul paulista,-20.9072,-48.6414,28.85,55,92,2.32,BR,1730221575
111,kuqa,41.7278,82.9364,11.4,45,10,1.84,CN,1730221460
112,tarko-sale,64.9225,77.785,-5.6,98,95,2.51,RU,1730221577
113,canutama,-6.5339,-64.3831,42.31,21,8,0.74,BR,1730221578
114,akcakoca,41.0866,31.1162,12.79,88,0,1.06,TR,1730221579
115,hawaiian paradise park,19.5933,-154.9731,20.92,94,20,3.6,US,1730221580
116,male,4.1748,73.5089,28.97,84,40,4.63,MV,1730221582
117,olonkinbyen,70.9221,-8.7187,-4.01,63,98,5.24,SJ,1730221583
118,portage la prairie,49.9728,-98.2926,6.05,81,75,1.54,CA,1730221584
119,ilulissat,69.2167,-51.1,-9.99,57,75,2.57,GL,1730221585
120,hermanus,-34.4187,19.2345,18.22,79,9,3.78,ZA,1730221535
121,gadzhiyevo,69.2551,33.3362,0.1,68,16,8.87,RU,1730221587
122,nizhnesortymskiy,62.4397,71.7603,-1.48,90,98,3.32,RU,1730221589
123,margaret river,-33.95,115.0667,13.62,82,45,5.0,AU,1730221591
124,arar,30.9753,41.0381,21.01,21,0,1.54,SA,1730221335
125,crane,31.3974,-102.3501,24.34,47,0,11.89,US,1730221593
126,lebu,-37.6167,-73.65,16.57,61,37,2.79,CL,1730221594
127,st. paul,44.9444,-93.0933,20.42,71,0,4.92,US,1730221219
128,haiku-pauwela,20.9219,-156.3051,22.78,82,20,7.6,US,1730221596
129,muravlenko,63.7898,74.523,-6.14,97,99,2.13,RU,1730221598
130,ulanhot,46.0833,122.0833,3.81,76,4,2.51,CN,1730221600
131,labasa,-16.4167,179.3833,22.41,90,55,1.52,FJ,1730221601
132,puerto baquerizo moreno,-0.9,-89.6,22.55,83,100,6.17,EC,1730221336
133,iqaluit,63.7506,-68.5145,-8.93,87,50,1.37,CA,1730221603
134,kybartai,54.6386,22.7632,9.8,81,94,2.23,LT,1730221756
135,mount gambier,-37.8333,140.7667,7.39,97,8,0.98,AU,1730221757
136,livingston,55.9029,-3.5226,11.95,85,0,4.12,GB,1730221759
137,khandyga,62.6667,135.6,-21.6,97,59,0.78,RU,1730221760
138,shanhecun,44.7,127.2,7.99,89,100,1.13,CN,1730221761
139,camalu,30.85,-116.0667,17.91,55,100,5.38,MX,1730221762
140,machico,32.7,-16.7667,21.42,71,75,3.09,PT,1730221763
141,pocitos,-34.9097,-56.1522,28.91,48,0,2.57,UY,1730221764
142,khandud,36.9513,72.318,2.8,81,70,2.62,AF,1730221765
143,gamba,-2.65,10.0,25.32,83,91,3.47,GA,1730221766
144,praia da vitoria,38.7333,-27.0667,20.14,88,75,6.04,PT,1730221767
145,arno,60.1167,18.6333,7.07,91,72,6.88,SE,1730221768
146,kontcha,7.9667,12.2333,26.73,57,22,0.98,CM,1730221769
147,mili,6.0815,171.735,27.84,73,17,1.95,MH,1730221770
148,mejit,10.2753,170.8646,28.56,75,51,6.46,MH,1730221771
149,coquimbo,-29.9533,-71.3436,17.77,67,75,4.63,CL,1730221538
150,college,64.8569,-147.8028,-7.74,90,100,1.97,US,1730221773
151,gosaba,22.165,88.7998,25.06,82,4,2.36,IN,1730221774
152,xinmin,41.9908,122.8253,8.99,65,2,4.59,CN,1730221776
153,daru,-9.0763,143.2092,26.13,89,100,5.39,PG,1730221777
154,mawlamyinegyunn,16.3833,95.2667,24.41,93,12,2.85,MM,1730221778
155,howard springs,-12.497,131.047,27.29,86,100,3.38,AU,1730221779
156,an nuhud,12.7,28.4333,29.79,15,0,4.55,SD,1730221780
157,kavaratti,10.5669,72.642,27.98,71,12,2.84,IN,1730221782
158,freire,-38.95,-72.6333,21.89,53,0,2.57,CL,1730221783
159,chibougamau,49.9168,-74.3659,5.22,37,98,6.69,CA,1730221784
160,udachny,66.4167,112.4,-27.37,100,95,1.97,RU,1730221786
161,margate,51.3813,1.3862,13.22,86,87,2.89,GB,1730221787
162,qamdo,31.1667,97.2333,3.34,57,22,2.59,CN,1730221789
163,lodja,-3.4833,23.4333,22.16,97,66,1.34,CD,1730221791
164,ust'-kulom,61.6864,53.6902,1.72,86,93,3.15,RU,1730221792
165,awjilah,29.1081,21.2869,21.54,43,0,4.47,LY,1730221793
166,arteche,12.2645,125.4048,26.2,83,100,3.4,PH,1730221794
167,amahai,-3.3333,128.9167,25.91,86,28,1.81,ID,1730221795
168,flin flon,54.7682,-101.865,1.91,64,100,2.06,CA,1730221796
169,new glasgow,45.5834,-62.6486,6.41,50,84,5.57,CA,1730221797
170,bodo,67.28,14.405,6.82,83,75,15.95,NO,1730221798
171,pamanukan,-6.2842,107.8106,28.56,73,39,1.83,ID,1730221799
172,beboto,8.2668,16.939,26.51,48,3,0.45,TD,1730221800
173,malango,-2.9627,119.9001,18.3,98,9,1.13,ID,1730221802
174,nacala,-14.5428,40.6728,25.83,90,6,6.04,MZ,1730221803
175,tamiahua,21.2667,-97.45,26.93,69,13,1.1,MX,1730221804
176,aykhal,66.0,111.5,-22.66,100,100,2.86,RU,1730221805
177,ngama,11.7833,17.1667,32.08,18,3,3.63,TD,1730221806
178,siyabuswa,-25.1132,29.0445,25.39,15,0,3.77,ZA,1730221807
179,elliot lake,46.3834,-82.6331,10.14,99,100,3.2,CA,1730221808
180,tsiombe,-25.3,45.4833,27.96,61,90,2.42,MG,1730221809
181,hafar al-batin,28.4328,45.9708,21.32,24,0,0.0,SA,1730221810
182,charters towers,-20.1,146.2667,20.06,82,0,4.46,AU,1730221812
183,pavilosta,56.8879,21.1859,11.25,85,100,5.06,LV,1730221813
184,newman,37.3138,-121.0208,16.13,47,0,5.81,US,1730221815
185,stanley,54.868,-1.6985,11.12,87,20,3.6,GB,1730221816
186,manokwari,-0.8667,134.0833,27.46,76,7,1.63,ID,1730221817
187,codrington,-38.2667,141.9667,9.92,83,98,2.76,AU,1730221818
188,paka,4.6374,103.4368,23.88,94,100,1.35,MY,1730221819
189,polyarnyy,69.1989,33.4478,0.1,68,15,8.58,RU,1730221820
190,la sarre,48.8002,-79.1996,6.81,55,100,5.58,CA,1730221821
191,belvedere marittimo,39.6179,15.8617,19.32,77,90,1.47,IT,1730221822
192,howrah,22.5892,88.3103,28.0,78,40,2.06,IN,1730221823
193,fayzabad,37.1166,70.58,9.29,86,28,0.28,AF,1730221824
194,kegen,43.0197,79.2203,-2.7,79,36,0.85,KZ,1730221825
195,trebes,43.2106,2.4417,18.21,88,20,4.63,FR,1730221826
196,petropavlovsk-kamchatsky,53.0452,158.6483,1.29,56,100,20.7,RU,1730221827
197,'alaqahdari dishu,30.4374,63.313,19.0,25,25,1.57,AF,1730221828
198,mana,5.6592,-53.7767,30.45,59,99,4.4,GF,1730221830
199,prainha,-1.8,-53.48,36.43,32,66,2.0,BR,1730221831
200,edinburgh of the seven seas,-37.0676,-12.3116,14.08,79,13,8.71,SH,1730221832
201,yuzhno-kurilsk,44.0306,145.8556,7.43,82,45,1.88,RU,1730221833
202,invercargill,-46.4,168.35,7.23,84,87,2.68,NZ,1730221792
203,fairbanks,64.8378,-147.7164,-7.73,90,100,1.93,US,1730221836
204,veraval,20.9,70.3667,27.87,76,6,5.0,IN,1730221837
205,kodiak,57.79,-152.4072,3.73,60,0,14.4,US,1730221695
206,bardai,11.65,7.2333,26.88,31,92,2.6,NG,1730221839
207,constitucion,-35.3333,-72.4167,17.16,76,61,5.37,CL,1730221621
208,chui,-33.6971,-53.4616,24.41,55,0,2.61,UY,1730221842
209,cabo san lucas,22.8909,-109.9124,32.09,41,0,6.17,MX,1730221843
210,satsuma,30.8532,-88.0561,27.29,46,3,3.13,US,1730221844
211,despenaderos,-31.8163,-64.2899,33.19,27,0,6.21,AR,1730221845
212,kenai,60.5544,-151.2583,0.87,95,100,5.66,US,1730221846
213,kirensk,57.7853,108.1119,-0.64,99,100,0.81,RU,1730221848
214,bashtanka,47.4072,32.4387,9.55,53,45,3.12,UA,1730221849
215,barra do bugres,-15.0725,-57.1811,32.22,51,94,2.02,BR,1730221850
216,siwa oasis,29.2041,25.5195,22.8,38,0,2.97,EG,1730221851
217,nguigmi,14.2495,13.1092,29.78,14,7,3.62,NE,1730221852
218,minab,27.1467,57.0801,28.28,58,2,1.7,IR,1730221853
219,happy valley-goose bay,53.3168,-60.3315,-0.83,80,75,3.09,CA,1730221854
220,alotau,-10.3069,150.4462,24.46,95,100,1.04,PG,1730221855
221,tazovsky,67.4667,78.7,-5.94,94,100,1.51,RU,1730221856
222,san patricio,28.017,-97.5169,29.97,61,35,9.28,US,1730221857
223,la passe,45.5549,-0.8967,17.3,83,0,3.75,FR,1730221859
224,labytnangi,66.6572,66.4183,-9.37,94,80,0.7,RU,1730221860
225,urubamba,-13.3047,-72.1158,15.01,59,73,3.65,PE,1730221861
226,kyren,51.6828,102.1408,2.01,79,100,0.96,RU,1730221862
227,iskateley,67.6803,53.1512,0.83,90,99,5.99,RU,1730221863
228,alofi,-19.0595,-169.9187,21.94,83,40,2.06,NU,1730221864
229,rundu,-17.9333,19.7667,27.01,9,0,2.05,NA,1730221865
230,saudarkrokur,65.7461,-19.6394,2.28,93,96,3.99,IS,1730221866
231,karratha,-20.7377,116.8463,28.21,66,0,0.24,AU,1730221867
232,yeppoon,-23.1333,150.7333,20.77,77,0,1.72,AU,1730221868
233,calama,-22.4667,-68.9333,26.27,7,0,9.77,CL,1730221869
234,sasovo,54.3537,41.9199,6.16,82,91,4.71,RU,1730221870
235,phan rang-thap cham,11.5667,108.9833,25.11,85,84,1.09,VN,1730221871
236,senahu,15.4,-89.8333,22.62,66,90,1.74,GT,1730221874
237,san antonio de pale,-1.4014,5.6325,25.45,83,96,4.71,GQ,1730221875
238,horsham,51.064,-0.3272,14.01,80,75,1.03,GB,1730221578
239,echuca,-36.1333,144.75,11.09,79,5,3.13,AU,1730221877
240,susuman,62.7833,148.1667,-18.02,96,100,1.57,RU,1730221878
241,brak,27.5496,14.2714,25.2,24,3,3.16,LY,1730221879
242,sheboygan,43.7333,-87.9334,25.13,54,0,10.29,US,1730221880
243,el nido,11.1858,119.3956,27.3,92,94,0.45,PH,1730221881
244,kimberley,-28.7323,24.7623,18.39,37,55,6.81,ZA,1730221882
245,suwayr,30.1171,40.3893,21.55,36,25,6.0,SA,1730221883
246,maintirano,-18.0667,44.0167,27.07,85,83,2.12,MG,1730221884
247,nyurba,63.2842,118.3319,-24.62,100,99,0.36,RU,1730221885
248,argo,37.6333,22.7333,20.35,36,16,2.22,GR,1730221886
249,san ignacio de velasco,-16.3667,-60.95,31.54,47,98,0.74,BO,1730221887
250,east london,-33.0153,27.9116,17.52,82,100,9.77,ZA,1730221888
251,port shepstone,-30.7414,30.455,19.92,75,54,5.32,ZA,1730221890
252,pacific grove,36.6177,-121.9166,12.89,85,0,1.79,US,1730221891
253,vadso,70.0744,29.7487,2.09,60,0,9.77,NO,1730221892
254,vernon,50.2581,-119.2691,5.25,80,65,1.79,CA,1730221681
255,lihue,21.9789,-159.3672,25.77,78,100,5.14,US,1730221792
256,tulun,54.5611,100.5792,2.69,89,100,2.52,RU,1730221895
257,nova sintra,14.8667,-24.7167,25.55,71,83,5.8,CV,1730221896
258,oak hill,37.9723,-81.1487,22.37,53,67,2.68,US,1730221784
259,tofol,5.3248,163.0078,28.57,75,48,3.36,FM,1730221898
260,lycksele,64.5954,18.6735,2.93,60,0,5.14,SE,1730222291
261,nova olinda do norte,-3.8881,-59.0942,41.83,16,87,1.79,BR,1730222292
262,sanchazi,42.0817,126.6003,6.48,94,95,1.8,CN,1730222293
263,la ronge,55.1001,-105.2842,-0.86,74,75,5.14,CA,1730222294
264,eyl,7.9803,49.8164,26.92,76,39,4.91,SO,1730222295
265,madang,-5.2246,145.7966,23.72,88,100,1.22,PG,1730222296
266,xinqing,48.2333,129.5,1.46,80,100,0.31,CN,1730222297
267,oistins,13.0667,-59.5333,31.05,70,40,5.66,BB,1730222260
268,chonchi,-42.6128,-73.8092,19.46,48,97,2.35,CL,1730222299
269,miles city,46.4083,-105.8406,8.54,53,75,3.6,US,1730222300
270,sanctuary point,-35.1114,150.629,10.17,91,0,1.67,AU,1730222302
271,brookings,44.3114,-96.7984,14.54,60,100,4.12,US,1730222303
272,oamaru,-45.0784,170.9801,6.88,87,38,1.44,NZ,1730222304
273,ancud,-41.8697,-73.8203,15.93,66,100,2.57,CL,1730222305
274,kenora,49.8167,-94.4337,6.54,81,100,3.09,CA,1730222306
275,fort st. john,56.2499,-120.8529,-7.06,93,75,2.06,CA,1730222307
276,le port,-20.9373,55.2919,23.2,91,92,1.37,RE,1730222308
277,sumbe,-11.2061,13.8437,25.11,77,16,4.63,AO,1730222309
278,talara,-4.5772,-81.2719,25.42,61,0,7.2,PE,1730222281
279,benjamin aceval,-24.9667,-57.5667,38.44,27,30,1.44,PY,1730222311
280,selfoss,63.9331,-20.9971,4.47,84,100,12.12,IS,1730222313
281,achacachi,-16.05,-68.6833,13.8,53,31,5.42,BO,1730222314
282,kuraymah,18.55,31.85,29.61,17,0,5.76,SD,1730222315
283,hami,42.8,93.45,10.58,50,6,3.02,CN,1730222316
284,chharra,27.9333,78.4167,26.87,44,0,1.25,IN,1730222317
285,ta`u,-14.2336,-169.5144,26.69,76,39,10.02,AS,1730222318
286,la foa,-21.7108,165.8276,20.71,85,14,3.52,NC,1730222319
287,ormara,25.2088,64.6357,27.8,76,0,6.53,PK,1730222320
288,miquelon,47.0975,-56.3814,5.74,59,7,4.34,PM,1730222321
289,bubaque,11.2833,-15.8333,28.56,67,50,1.99,GW,1730222323
290,chitipa,-9.7024,33.2697,23.15,60,74,1.19,MW,1730222324
291,buka,40.8108,69.1986,9.68,52,98,2.63,UZ,1730222325
292,consett,54.854,-1.8316,10.52,85,90,3.69,GB,1730222326
293,laguna,38.421,-121.4238,12.35,62,0,3.09,US,1730222327
294,chingirlau,51.095,54.0814,2.52,58,33,2.06,KZ,1730222328
295,tukrah,32.5341,20.5791,21.1,69,14,4.82,LY,1730222329
296,luanda,-8.8368,13.2343,26.0,78,20,6.17,AO,1730222077
297,kamenka,51.3223,42.7678,6.58,86,85,3.23,RU,1730222331
298,chilecito,-29.1619,-67.4974,28.67,25,0,2.58,AR,1730222162
299,borogontsy,62.6683,131.1683,-23.23,100,87,0.98,RU,1730222333
300,obiaruku,5.8467,6.1526,26.65,81,100,1.76,NG,1730222334
301,fauske,67.2588,15.3918,7.19,93,100,9.54,NO,1730222335
302,shakawe,-18.3667,21.85,26.83,10,0,2.99,BW,1730222336
303,dunedin,-45.8742,170.5036,7.11,87,42,2.24,NZ,1730222338
304,kirakira,-10.4544,161.9205,25.46,88,74,1.33,SB,1730222341
305,anadyr,64.75,177.4833,-5.0,67,40,6.71,RU,1730222342
306,colonia,50.9333,6.95,15.42,82,100,1.03,DE,1730222161
307,meulaboh,4.1363,96.1285,25.07,87,100,1.31,ID,1730222344
308,dudinka,69.4058,86.1778,-17.38,100,79,1.98,RU,1730222345
309,new norfolk,-42.7826,147.0587,9.4,97,100,1.33,AU,1730222346
310,hirara,24.8,125.2833,27.15,89,100,10.8,JP,1730222347
311,broken hill,-31.95,141.4333,17.03,30,0,2.01,AU,1730222348
312,kapuskasing,49.4169,-82.4331,8.0,100,100,4.12,CA,1730222349
313,ust-nera,64.5667,143.2,-17.53,98,100,1.38,RU,1730222350
314,puerto colombia,10.9878,-74.9547,34.05,69,100,3.22,CO,1730222351
315,punta arenas,-53.15,-70.9167,10.06,62,75,12.86,CL,1730222352
316,igarka,67.4667,86.5833,-15.43,98,65,2.19,RU,1730222353
317,kabare,-2.4683,28.8242,18.6,90,66,0.11,CD,1730222355
318,petauke,-14.2426,31.3253,24.7,59,77,1.98,ZM,1730222161
319,kurchatov,51.6601,35.6521,5.99,75,3,2.97,RU,1730222357
320,afaahiti,-17.75,-149.2833,23.17,62,79,7.28,PF,1730222358
321,benguela,-12.5763,13.4055,24.64,75,13,3.55,AO,1730222359
322,mil'kovo,55.6078,37.7956,5.35,48,48,4.73,RU,1730222360
323,puerto el triunfo,13.2833,-88.55,30.1,63,85,3.0,SV,1730222361
324,pelhrimov,49.4313,15.2234,11.18,89,43,0.45,CZ,1730222362
325,la'ie,21.6477,-157.9253,25.61,83,83,3.58,US,1730222363
326,ola,59.5833,151.2833,-8.32,66,100,5.59,RU,1730222364
327,lijiang,26.8688,100.2207,9.52,91,3,1.0,CN,1730222365
328,natchez,31.5604,-91.4032,27.69,54,40,7.72,US,1730222367
329,encheng,22.1839,112.3026,20.87,79,100,1.55,CN,1730222368
330,usinsk,65.9939,57.5281,0.13,99,100,6.41,RU,1730222369
331,conception bay south,47.4999,-52.9981,3.63,90,38,4.94,CA,1730222370
332,kayangel,8.0823,134.7173,29.09,74,100,3.75,PW,1730222371
333,moses lake,47.1301,-119.2781,2.2,80,0,1.54,US,1730222372
334,yaren,-0.5472,166.916,28.13,77,24,4.11,NR,1730222373
335,mount isa,-20.7333,139.5,26.87,26,2,3.09,AU,1730222374
336,klyuchi,52.2667,79.1667,0.11,82,100,3.92,RU,1730222375
337,hasaki,35.7333,140.8333,19.42,87,100,8.08,JP,1730222376
338,pandan,14.0453,124.1694,26.88,81,100,5.81,PH,1730222377
339,sao jose,-28.2333,-49.1667,30.56,43,0,3.55,BR,1730222378
340,puerto tejada,3.2311,-76.4167,28.09,54,62,0.98,CO,1730222379
341,anjiang,27.3194,110.1031,16.21,84,1,1.0,CN,1730222382
342,lukolela,-1.0605,17.1821,23.9,86,94,1.2,CD,1730222383
343,talcahuano,-36.7167,-73.1167,13.82,88,100,5.14,CL,1730222184
344,sitka,57.0531,-135.33,7.94,71,100,7.72,US,1730222385
345,necochea,-38.5473,-58.7368,27.96,25,8,7.17,AR,1730222028
346,bardsir,29.9227,56.5743,14.8,39,0,1.68,IR,1730222387
347,mirny,62.5353,113.9611,-19.68,100,100,0.97,RU,1730222388
348,wajir,1.7471,40.0573,32.19,31,100,3.39,KE,1730222010
349,christchurch,-43.5333,172.6333,7.42,89,20,3.09,NZ,1730221736
350,gornozavodsk,58.3758,58.3211,0.2,79,100,2.38,RU,1730222391
351,jacksonville,30.3322,-81.6556,23.92,85,100,4.63,US,1730222169
352,santa cruz,-17.8,-63.1667,33.03,58,40,3.6,BO,1730222333
353,vorgashor,67.5833,63.95,-2.56,96,99,3.98,RU,1730222394
354,yuanping,38.7153,112.7575,11.53,39,78,1.26,CN,1730222395
355,bairnsdale,-37.8333,147.6167,8.36,92,21,2.44,AU,1730222396
356,westerland,54.9079,8.3033,14.01,94,100,3.6,DE,1730222397
357,palikir - national government center,6.9248,158.1611,26.41,94,75,0.0,FM,1730222398
358,zyryanskoye,56.8306,86.6258,0.79,85,100,4.96,RU,1730222399
359,waingapu,-9.6567,120.2641,28.27,68,43,2.87,ID,1730222401
360,iquique,-20.2208,-70.1431,19.07,72,2,4.17,CL,1730222039
361,bima,-8.4667,118.7167,25.47,85,73,1.59,ID,1730222270
362,sainte-marie,-20.8968,55.5496,24.0,84,40,2.57,RE,1730222404
363,panaba,21.2833,-88.2667,27.57,80,85,4.85,MX,1730222405
364,tvoroyri,61.5556,-6.8111,8.95,78,25,13.08,FO,1730222406
365,obo,5.3998,26.4869,24.7,74,35,1.25,CF,1730222407
366,punta del este,-34.9667,-54.95,22.71,80,20,4.12,UY,1730222201
367,urangan,-25.3,152.9,19.98,84,0,3.05,AU,1730222409
368,raduzhny,62.0961,77.475,-1.09,97,100,2.09,RU,1730222410
369,mananjary,-21.2167,48.3333,23.75,92,66,3.71,MG,1730222411
370,rosarito,32.3333,-117.0333,16.41,62,90,5.94,MX,1730222103
371,tralee,52.2704,-9.7026,13.14,94,0,1.03,IE,1730222413
372,mahikeng,-25.8652,25.6442,20.99,26,0,5.66,ZA,1730222414
373,vilyuchinsk,52.9306,158.4028,4.15,66,100,22.78,RU,1730222415
374,togur,58.3631,82.8265,-1.0,92,92,3.1,RU,1730222417
375,parras de la fuente,25.4167,-102.1833,24.95,21,0,5.11,MX,1730222418
376,khvoynaya,58.9,34.5333,1.74,91,27,2.09,RU,1730222419
377,malvan,16.0667,73.4667,27.0,81,21,1.8,IN,1730222420
378,kamphaeng phet,16.25,99.5,24.13,91,4,1.87,TH,1730222421
379,lagoa,39.05,-27.9833,19.32,71,78,4.56,PT,1730222422
380,mukalla,14.5425,49.1242,27.33,62,0,0.67,YE,1730222423
381,crowley,30.2141,-92.3746,27.57,50,1,7.57,US,1730222223
382,ugoofaaru,5.6667,73.0,27.43,84,74,3.96,MV,1730222425
383,rawson,-43.3002,-65.1023,31.16,8,0,6.69,AR,1730222426
384,lisala,2.15,21.5167,24.43,85,77,1.15,CD,1730222427
385,birmitrapur,22.4,84.7667,24.31,79,17,0.58,IN,1730222428
386,sevastopol,44.6,33.5333,16.11,55,10,0.45,UA,1730222280
387,taroa,8.7058,171.2275,28.71,77,27,6.82,MH,1730222431
388,oranjemund,-28.55,16.4333,15.9,81,4,8.99,NA,1730222407
389,ndago,-4.6,34.35,28.02,34,83,1.59,TZ,1730222433
390,kotdwara,29.75,78.5333,22.06,73,0,2.64,IN,1730222434
391,porbandar,21.6422,69.6093,28.29,68,4,3.92,IN,1730222435
392,craig,40.5153,-107.5464,3.97,93,100,4.63,US,1730222436
393,mitu,1.1983,-70.1733,28.88,75,100,1.68,CO,1730222437
394,greymouth,-42.4667,171.2,7.85,93,86,1.45,NZ,1730222296
395,vredendal,-31.6683,18.5012,19.59,61,3,7.76,ZA,1730222439
396,khairabad,27.5333,80.75,25.86,57,0,1.05,IN,1730222440
397,kerikeri,-35.2268,173.9474,10.51,93,21,2.25,NZ,1730222441
398,kongolo,-5.3833,27.0,27.43,63,82,0.93,CD,1730222442
399,yankton,42.8711,-97.3973,13.14,94,100,0.0,US,1730222295
400,tomatlan,19.9333,-105.25,30.34,57,0,0.48,MX,1730222444
401,noshiro,40.2039,140.0242,8.76,71,99,3.25,JP,1730222185
402,lincoln city,44.9582,-124.0179,9.49,98,24,1.34,US,1730222427
403,minas de marcona,-15.2119,-75.1103,20.97,48,7,6.45,PE,1730222447
404,antofagasta,-23.65,-70.4,18.6,75,8,4.3,CL,1730221809
405,drayton valley,53.2168,-114.9854,-1.19,78,52,2.35,CA,1730222450
406,rio tuba,8.5061,117.4317,26.78,82,100,2.34,PH,1730222451
407,hadibu,12.65,54.0333,26.76,63,2,1.42,YE,1730222452
408,srivardhan,18.0333,73.0167,26.75,82,5,2.55,IN,1730222453
409,say,13.1007,2.3689,33.05,17,100,2.67,NE,1730222454
410,atasu,48.6814,71.6433,0.77,79,93,2.64,KZ,1730222455
411,sinan,34.8262,126.1086,17.29,77,39,6.28,KR,1730222456
412,san pedro pochutla,15.7333,-96.4667,31.51,61,89,1.68,MX,1730222457
413,bintulu,3.1667,113.0333,24.23,94,20,0.0,MY,1730222257
414,carinhanha,-14.3047,-43.765,36.57,28,6,1.14,BR,1730222460
415,tegina,10.0706,6.1906,27.61,44,100,1.91,NG,1730222461
416,rongelap,11.1635,166.8941,28.26,79,85,5.3,MH,1730222462
417,kingaroy,-26.5333,151.8333,13.44,96,0,1.53,AU,1730222463
418,vila velha,-20.3297,-40.2925,23.3,92,100,5.36,BR,1730221882
419,hanting,36.7708,119.2108,13.74,46,25,2.2,CN,1730222465
420,san luis de la loma,17.2706,-100.8939,29.44,66,6,1.53,MX,1730222466
421,malakwal,32.5536,73.2123,26.18,38,0,1.65,PK,1730222467
422,varash,51.3485,25.8497,9.72,87,100,1.62,UA,1730222468
423,patiya,22.2931,91.9762,27.97,78,40,1.54,BD,1730222469
424,lata,40.1629,-8.3327,18.67,59,78,1.95,PT,1730222470
425,windsor,42.3001,-83.0165,23.56,69,0,12.35,CA,1730222393
426,san jose del guaviare,2.5729,-72.6459,31.03,56,90,2.22,CO,1730222472
427,luena,-11.7833,19.9167,22.53,63,81,1.86,AO,1730222473
428,ongjin,37.9347,125.3619,13.64,83,42,2.63,KP,1730222474
429,qurayyat,31.3318,37.3428,22.1,33,20,2.06,SA,1730222475
430,camabatela,-8.1881,15.375,22.43,69,74,1.08,AO,1730222476
431,annau,37.8876,58.516,9.72,87,0,0.0,TM,1730222478
432,west bay,19.3667,-81.4167,30.04,74,20,7.72,KY,1730222417
433,maxixe,-23.8597,35.3472,24.29,93,100,3.51,MZ,1730222480
434,carutapera,-1.195,-46.02,30.48,60,100,5.15,BR,1730222481
435,ambodifotatra,-16.9833,49.85,25.44,81,8,2.9,MG,1730222482
436,bereznik,62.8551,42.7072,0.27,95,11,1.82,RU,1730222484
437,morales,2.757,-76.6172,25.2,45,100,1.59,CO,1730222485
438,noosa heads,-26.3833,153.15,20.06,83,11,2.75,AU,1730222486
439,okhotsk,59.3833,143.3,-11.34,72,22,7.45,RU,1730222487
440,neya,58.2972,43.8681,3.61,90,100,4.25,RU,1730222488
441,bel ombre,-4.6167,55.4167,26.91,78,20,1.03,SC,1730222489
442,aasiaat,68.7098,-52.8699,-17.54,84,32,3.78,GL,1730222490
443,chapaev,50.2,51.1667,5.53,84,100,3.15,KZ,1730222491
444,sabang,5.8933,95.3214,28.71,76,92,9.2,ID,1730222492
445,mersa matruh,31.3525,27.2453,22.11,56,75,3.6,EG,1730222493
446,graaff-reinet,-32.2522,24.5308,16.62,56,73,4.98,ZA,1730222494
447,zaozersk,69.4005,32.4476,-0.27,66,35,8.43,RU,1730222495
448,galle,6.0367,80.217,29.4,82,100,4.16,LK,1730222497
449,guerrero negro,27.9769,-114.0611,19.42,57,82,8.69,MX,1730222487
450,dhidhdhoo,6.8833,73.1,28.03,78,45,5.58,MV,1730222499
451,kovdor,67.5662,30.4758,-1.44,72,80,3.83,RU,1730222500
452,lyantonde,-0.4031,31.1572,21.37,64,47,2.06,UG,1730222501
453,omaruru,-21.4333,15.9333,26.12,7,0,2.97,NA,1730222502
454,porto uniao,-26.2381,-51.0783,31.63,28,6,0.63,BR,1730222503
455,kuanda,56.3161,116.0806,-6.76,95,94,0.61,RU,1730222504
456,mtsensk,53.2766,36.5733,7.28,76,47,4.0,RU,1730222505
457,mahibadhoo,3.7833,72.9667,27.96,76,94,4.0,MV,1730222474
458,lepsy,46.235,78.9456,4.74,70,22,1.8,KZ,1730222507
459,sao raimundo das mangabeiras,-7.0219,-45.4811,40.49,15,8,2.22,BR,1730222508
460,plettenberg bay,-34.0527,23.3716,15.44,88,39,3.89,ZA,1730222509
461,justo daract,-33.8594,-65.1828,34.31,18,3,4.73,AR,1730222510
462,kentville,45.0835,-64.4988,7.15,51,0,3.09,CA,1730222512
463,usogorsk,63.4106,48.6872,1.84,99,100,1.26,RU,1730222513
464,kimbe,-5.5502,150.1429,24.68,92,100,1.56,PG,1730222514
465,palmer,42.1584,-72.3287,10.9,51,100,2.57,US,1730222515
466,emerald,-23.5333,148.1667,17.97,78,4,2.91,AU,1730222516
467,san matias,-16.3667,-58.4,31.43,55,97,2.04,BO,1730222517
468,nar'yan-mar,67.6713,53.087,0.83,91,99,6.0,RU,1730222518
469,gaspe,48.8334,-64.4819,3.12,35,20,5.66,CA,1730222437
470,corumba,-19.0092,-57.6533,29.95,62,40,3.6,BR,1730222520
471,pimentel,-6.8367,-79.9342,23.16,60,0,8.75,PE,1730222081
472,nikolayevsk-on-amure,53.1406,140.73,-5.2,93,14,1.44,RU,1730222361
473,portales,34.1862,-103.3344,26.57,23,100,4.92,US,1730222336
474,badvel,14.75,79.05,26.45,74,35,1.46,IN,1730222525
475,abu dhabi,24.4667,54.3667,30.06,54,0,4.12,AE,1730222527
476,walvis bay,-22.9575,14.5053,15.53,77,4,5.14,NA,1730222528
477,arvika,59.6553,12.5852,9.48,85,85,5.08,SE,1730222529
478,barra de santo antonio,-9.4047,-35.5072,27.09,65,79,5.31,BR,1730222530
479,adrar,20.5022,-10.0711,30.15,21,16,2.41,MR,1730222531
480,mesudiye,40.4625,37.7725,4.81,92,5,1.88,TR,1730222532
481,cambria,35.5641,-121.0808,13.36,73,2,0.89,US,1730222533
482,brisas de zicatela,15.8369,-97.0419,32.29,58,40,2.57,MX,1730222534
483,tual,-5.6667,132.75,27.81,79,87,2.35,ID,1730222535
484,lamu,-2.2717,40.902,25.56,81,3,5.57,KE,1730222339
485,leua,48.2156,18.6071,13.21,77,59,1.96,SK,1730222537
486,coxim,-18.5067,-54.76,35.87,38,95,1.52,BR,1730222538
487,alderetes,-26.8167,-65.1333,31.95,33,0,2.57,AR,1730222353
488,belmonte,-15.8631,-38.8828,28.71,59,49,4.22,BR,1730222540
489,valparaiso,-33.0393,-71.6273,18.33,58,100,5.14,CL,1730222542
490,yarovoye,52.9273,78.58,0.2,82,100,4.75,RU,1730222345
491,troitskoye,52.9821,84.6757,0.27,97,100,7.16,RU,1730222544
492,zheleznodorozhnyy,55.7503,38.0042,3.94,81,37,4.31,RU,1730222545
493,shakiso,5.75,38.9167,15.48,97,48,0.49,ET,1730222546
494,uturoa,-16.7333,-151.4333,25.16,69,97,8.65,PF,1730222547
495,westport,41.1415,-73.3579,13.93,68,100,6.69,US,1730222412
496,ceeldheer,3.8488,47.1806,26.37,76,24,5.14,SO,1730222549
497,longquan,24.6719,102.1613,16.14,78,44,1.86,CN,1730222550
498,syzran',53.1585,48.4681,6.35,91,100,4.38,RU,1730222551
499,magistral'nyy,56.1725,107.4458,-0.56,97,98,0.71,RU,1730222552
500,pangody,65.85,74.4859,-7.4,98,100,2.08,RU,1730222553
501,arkalyk,50.2486,66.9114,2.07,71,100,2.98,KZ,1730222554
502,khovd,48.0056,91.6419,1.62,40,82,3.67,MN,1730222555
503,fomboni,-12.28,43.7425,26.78,80,0,6.64,KM,1730222556
504,severo-yeniseyskiy,60.3725,93.0408,-1.48,99,100,0.76,RU,1730222557
505,farasan,16.7022,42.1183,30.75,66,86,0.71,SA,1730222558
506,pathein,16.7833,94.7333,24.87,88,31,2.89,MM,1730222559
507,mizque,-17.941,-65.3402,27.08,36,34,6.01,BO,1730222561
508,taksimo,56.3444,114.8794,-7.36,90,74,0.83,RU,1730222562
509,nizhneangarsk,55.7833,109.55,0.3,87,100,1.86,RU,1730222563
510,jacmel,18.2342,-72.5347,30.28,71,98,2.39,HT,1730222564
511,cannonvale,-20.2833,148.7,23.66,77,2,4.21,AU,1730222565
512,labrador city,52.9463,-66.9114,-0.46,58,75,29.95,CA,1730222566
513,mount sterling,38.0565,-83.9433,23.1,56,0,6.69,US,1730222524
514,weno,7.4515,151.8468,26.97,94,100,2.57,FM,1730222568
515,linxia chengguanzhen,35.6003,103.2064,8.86,67,100,1.01,CN,1730222570
516,rio preto da eva,-2.6994,-59.6997,41.56,15,99,2.87,BR,1730222571
517,katsuura,35.1333,140.3,20.07,91,100,5.0,JP,1730222572
518,el alto,-4.2714,-81.2147,22.41,65,84,6.22,PE,1730222573
519,paya,18.25,-70.3,32.57,54,93,7.85,DO,1730222574
520,sa kaeo,13.75,102.3333,23.22,92,31,2.51,TH,1730222575
521,gornopravdinsk,60.05,69.9,-1.14,91,94,2.76,RU,1730222576
522,turuntayevo,52.2,107.6167,1.37,92,83,0.42,RU,1730222577
523,durango,24.8333,-104.8333,21.67,34,0,1.41,MX,1730222401
524,brandon,27.9378,-82.2859,28.42,69,75,4.63,US,1730222433
525,den burg,53.0542,4.7972,13.98,88,100,1.54,NL,1730222581
526,ha'il,27.5219,41.6907,19.01,77,0,6.17,SA,1730222582
527,mata-utu,-13.2816,-176.1745,27.39,77,35,5.37,WF,1730222583
528,egilsstadir,65.2653,-14.3948,4.95,65,20,6.69,IS,1730222584
529,madras,13.0878,80.2785,28.99,89,40,1.03,IN,1730222479
530,totness,5.8833,-56.3167,30.76,62,57,5.15,SR,1730222586
531,sinabang,2.4803,96.3801,27.2,78,100,1.37,ID,1730222587
532,deniliquin,-35.5333,144.9667,10.11,85,2,3.13,AU,1730222588
533,nolinsk,57.5596,49.9363,4.86,88,92,5.24,RU,1730222589
534,hammerfest,70.6634,23.6821,1.25,69,40,4.63,NO,1730222590
535,banda aceh,5.5577,95.3222,27.24,74,100,6.1,ID,1730222591
536,klaksvik,62.2266,-6.589,8.48,77,28,14.3,FO,1730222592
537,egersund,58.4513,5.9997,10.36,95,100,4.65,NO,1730222595
538,charleston,32.7766,-79.9309,25.27,75,0,4.63,US,1730222352
539,remire-montjoly,4.9167,-52.2667,32.02,62,40,4.63,GF,1730222597
540,colby,39.3958,-101.0524,21.03,32,0,5.14,US,1730222598
541,bukama,-9.2,25.85,27.0,56,83,0.67,CD,1730222599
542,likiep,9.8251,169.3107,28.13,79,84,5.76,MH,1730222600
543,eatonton,33.3268,-83.3885,22.85,66,1,2.68,US,1730222525
544,luderitz,-26.6481,15.1594,18.85,67,4,10.81,NA,1730222413
545,nuuk,64.1835,-51.7216,-2.66,80,75,2.57,GL,1730222603
546,tavda,58.0425,65.2726,0.71,79,100,2.27,RU,1730222604
547,spittal an der drau,46.8,13.5,15.05,93,8,1.43,AT,1730222605
548,alice springs,-23.7,133.8833,20.75,23,97,2.57,AU,1730222358
549,nantucket,41.2835,-70.0995,12.06,50,40,4.63,US,1730222355
550,markala,13.7021,-6.0659,34.27,18,90,3.53,ML,1730222608
551,mutuali,-14.8706,37.0044,31.75,28,77,0.94,MZ,1730222609
552,san isidro de curuguaty,-24.5167,-55.7,36.76,30,29,1.34,PY,1730222610
553,zahedan,29.4963,60.8629,13.95,33,0,0.0,IR,1730222612
554,taro,-8.3862,115.28,19.88,100,53,0.36,ID,1730222613
555,sola,-13.8833,167.55,25.75,81,83,3.8,VU,1730222614
556,polyarnyye zori,67.3661,32.4981,-0.55,70,49,3.16,RU,1730222615
557,ujae,8.9322,165.7642,28.72,76,98,4.83,MH,1730222617
558,mozarlandia,-14.7447,-50.5706,25.79,76,100,1.24,BR,1730222618
559,syktyvkar,61.6764,50.8099,-0.15,100,100,2.0,RU,1730222619
560,kavieng,-2.5744,150.7967,27.58,73,100,0.62,PG,1730222620
561,kargasok,59.0556,80.8572,-1.26,91,100,3.16,RU,1730222621
562,la paz,-16.5,-68.15,14.21,61,40,5.14,BO,1730221923
563,bafang,5.1563,10.1788,18.61,97,60,0.78,CM,1730222623
564,kristiansund,63.1115,7.732,9.36,93,75,11.83,NO,1730222624
565,el porvenir,13.7617,-87.3458,29.36,54,72,1.36,HN,1730222625
566,crucecita,-28.95,-58.9833,34.27,20,0,3.99,AR,1730222626
567,chokwe,-24.5333,32.9833,26.78,74,78,5.64,MZ,1730222630
568,novoagansk,61.9449,76.6625,-0.95,97,100,2.51,RU,1730222631
569,moree,-29.4667,149.85,17.65,31,0,3.71,AU,1730222632
570,kota kinabalu,5.9749,116.0724,26.99,89,20,2.68,MY,1730222633
571,quelimane,-17.8786,36.8883,29.06,62,60,2.61,MZ,1730222634
572,taphan hin,16.2209,100.4198,24.39,90,4,1.79,TH,1730222635
573,mogok,22.9167,96.5,16.22,94,7,0.99,MM,1730222636
574,mount pleasant,32.7941,-79.8626,24.99,77,20,4.63,US,1730222409
575,kulhudhuffushi,6.6221,73.07,27.87,79,57,5.71,MV,1730222638
576,soio,-6.1349,12.3689,25.58,80,75,3.95,AO,1730222639
577,kalianget,-7.05,113.9333,28.97,69,87,5.49,ID,1730222641
578,bamboo flat,11.7,92.7167,26.05,94,20,1.03,IN,1730222643
579,angicos,-5.6656,-36.6011,37.29,18,81,5.81,BR,1730222609
580,ad dilinjat,30.8279,30.5363,18.82,69,2,4.01,EG,1730222645
581,amga,60.8953,131.9608,-15.69,98,95,0.76,RU,1730222646
